{
  "africa": {
    "label": "Africa",
    "events": [
      {
        "host": "Nnamdi Oji  ",
        "eventLink": "https://lu.ma/d75tlbfw",
        "pingedForURL": "FALSE",
        "eventLocation": "TheBuidl, Kaduna, Nigeria",
        "address": "10 Algeria Crescent, Barnawa, Kaduna 800283, Kaduna, Nigeria",
        "city": "Kaduna",
        "country": "Nigeria",
        "region": "Africa",
        "continent": "Africa",
        "lat": "10.5036",
        "lng": "7.4337",
        "readyToShow": "TRUE",
        "countryFlag": "ðŸ‡³ðŸ‡¬"
      },
      {
        "host": "Built Different Foundation",
        "eventLink": "https://lu.ma/6yotpgq5",
        "pingedForURL": "FALSE",
        "eventLocation": "Eight 2 Five Innovation Hub, Third Floor Anchor House, J Moyo Avenue, Harare",
        "address": "Eight 2 Five Innovation Hub, Third Floor Anchor House, J Moyo Avenue, Harare",
        "city": "Harare",
        "country": "Zimbabwe",
        "region": "Africa",
        "continent": "Africa",
        "lat": "-17.8263",
        "lng": "31.0504",
        "readyToShow": "TRUE",
        "countryFlag": "ðŸ‡¿ðŸ‡¼"
      },
      {
        "host": "Africa Blockchain Community",
        "eventLink": "https://lu.ma/xatik06o",
        "pingedForURL": "FALSE",
        "eventLocation": "Rue 186 AFG, LomÃ©, Togo",
        "address": "Rue 186 AFG, LomÃ©, Togo",
        "city": "LomÃ©",
        "country": "Togo",
        "region": "Africa",
        "continent": "Africa",
        "lat": "6.1296",
        "lng": "1.2197",
        "readyToShow": "TRUE",
        "countryFlag": "ðŸ‡¹ðŸ‡¬"
      },
      {
        "host": "BLOCKFUSE LABS",
        "eventLink": "https://lu.ma/sttk0wd5",
        "pingedForURL": "FALSE",
        "eventLocation": "Blockfuse Labs HQ, ",
        "address": "Rhomat Plaza, 29 Jonah David Jang Wy, Local, Rayfield, Jos 930101, Plateau, Nigeria",
        "city": "Jos",
        "country": "Nigeria",
        "region": "Africa",
        "continent": "Africa",
        "lat": "9.8965",
        "lng": "8.8583",
        "readyToShow": "TRUE",
        "countryFlag": "ðŸ‡³ðŸ‡¬"
      },
      {
        "host": "ETHCongo",
        "eventLink": "https://lu.ma/1mha555b?locale=fr",
        "pingedForURL": "FALSE",
        "eventLocation": "kinshasa/ DRC",
        "address": "TBD",
        "city": "Kinshasa",
        "country": "Democratic Republic of the Congo",
        "region": "Africa",
        "continent": "Africa",
        "lat": "-4.3033",
        "lng": "15.3105",
        "readyToShow": "TRUE",
        "countryFlag": "ðŸ‡¨ðŸ‡©"
      }
    ]
  },
  "asia": {
    "label": "Asia",
    "events": [
      {
        "host": "Gryffindors",
        "eventLink": "https://lu.ma/e1ctjffh",
        "pingedForURL": "FALSE",
        "eventLocation": "Chennai",
        "address": "53/23, 3rd Main Road, Gandhi Nagar, Adyar, Chennai, Tamil Nadu 600020, India",
        "city": "Chennai",
        "country": "India",
        "region": "India",
        "continent": "Asia",
        "lat": "13.0843",
        "lng": "80.2705",
        "readyToShow": "TRUE",
        "countryFlag": "ðŸ‡®ðŸ‡³"
      },
      {
        "host": "Song  ",
        "eventLink": "https://lu.ma/alwo0o2j",
        "pingedForURL": "TRUE",
        "eventLocation": "Found8 Tanjong Pagar, Singapore (co-working event space)",
        "address": "1 N Bridge Rd, #08-08 High Street Centre, Singapore 179094",
        "city": "Singapore",
        "country": "Singapore",
        "region": "East Asia",
        "continent": "Asia",
        "lat": "1.3521",
        "lng": "103.8198",
        "readyToShow": "TRUE",
        "countryFlag": "ðŸ‡¸ðŸ‡¬"
      },
      {
        "host": "ETHMumbai",
        "eventLink": "https://lu.ma/vmtviber",
        "pingedForURL": "FALSE",
        "eventLocation": "Mumbai",
        "address": "TBD",
        "city": "Mumbai",
        "country": "India",
        "region": "India",
        "continent": "Asia",
        "lat": "19.076",
        "lng": "72.8777",
        "readyToShow": "TRUE",
        "countryFlag": "ðŸ‡®ðŸ‡³"
      },
      {
        "host": "Gangwal  ",
        "eventLink": "https://platform.serotonin.co/events/10-years-of-ethereum-iiit-hyderabad-hyderabad-india-maabsu",
        "pingedForURL": "TRUE",
        "eventLocation": "IIIT Hyderabad, India",
        "address": "IIIT Hyderabad, India",
        "city": "Hyderabad",
        "country": "India",
        "region": "India",
        "continent": "Asia",
        "lat": "17.4065",
        "lng": "78.4772",
        "readyToShow": "TRUE",
        "countryFlag": "ðŸ‡®ðŸ‡³"
      },
      {
        "host": "Coding Catalyst",
        "eventLink": "https://lu.ma/b9tnoyl2",
        "pingedForURL": "TRUE",
        "eventLocation": "Local co-working space / Cafe",
        "address": "TBD",
        "city": "Delhi",
        "country": "India",
        "region": "India",
        "continent": "Asia",
        "lat": "28.7041",
        "lng": "77.1025",
        "readyToShow": "TRUE",
        "countryFlag": "ðŸ‡®ðŸ‡³"
      },
      {
        "host": "Sahu  ",
        "eventLink": "https://lu.ma/sc3s8xcl",
        "pingedForURL": "TRUE",
        "eventLocation": "TBD",
        "address": "TBD",
        "city": "Bhopal",
        "country": "India",
        "region": "India",
        "continent": "Asia",
        "lat": "24.6912",
        "lng": "78.4138",
        "readyToShow": "TRUE",
        "countryFlag": "ðŸ‡®ðŸ‡³"
      },
      {
        "host": "Shenzhen University",
        "eventLink": "https://lu.ma/ejoo0fb5",
        "pingedForURL": "FALSE",
        "eventLocation": "SZTU",
        "address": "TBD",
        "city": "Shenzen",
        "country": "China",
        "region": "China",
        "continent": "Asia",
        "lat": "22.5429",
        "lng": "114.0596",
        "readyToShow": "TRUE",
        "countryFlag": "ðŸ‡¨ðŸ‡³"
      }
    ]
  },
  "central & south america": {
    "label": "Central & South America",
    "events": [
      {
        "host": "Nodo Serrano",
        "eventLink": "https://lu.ma/lb7dtked",
        "pingedForURL": "TRUE",
        "eventLocation": "San MartÃ­n 864",
        "address": "San MartÃ­n 864, B7000 Tandil, Provincia de Buenos Aires, Argentina",
        "city": "Tandil",
        "country": "Argentina",
        "region": "Central & South America",
        "continent": "Central & South America",
        "lat": "-37.3288",
        "lng": "-59.1367",
        "readyToShow": "TRUE",
        "countryFlag": "ðŸ‡¦ðŸ‡·"
      },
      {
        "host": "Ethereum Monterrey",
        "eventLink": "https://lu.ma/8njndqrw",
        "pingedForURL": "TRUE",
        "eventLocation": "LaCuraduria",
        "address": "Santa Catarina, Calle Hidalgo Nte 306-308, La Fama, 66100 Cdad. Santa Catarina, N.L., Mexico",
        "city": "Monterrey",
        "country": "Mexico",
        "region": "Central & South America",
        "continent": "Central & South America",
        "lat": "25.6866",
        "lng": "-100.3161",
        "readyToShow": "TRUE",
        "countryFlag": "ðŸ‡²ðŸ‡½"
      },
      {
        "host": "CochaBlock",
        "eventLink": "https://app.unlock-protocol.com/event/celebra-los-10-aos-de-ethereum-junto-a-cocha-block-2",
        "pingedForURL": "FALSE",
        "eventLocation": "Trotamundos Recoleta Video BAR",
        "address": "591, Cochabamba, Bolivia",
        "city": "Cochabamba",
        "country": "Bolivia",
        "region": "Central & South America",
        "continent": "Central & South America",
        "lat": "-17.382",
        "lng": "-66.1596",
        "readyToShow": "TRUE",
        "countryFlag": "ðŸ‡§ðŸ‡´"
      },
      {
        "host": "Novak  ",
        "eventLink": "https://lu.ma/kq1nul4t",
        "pingedForURL": "FALSE",
        "eventLocation": "Founder Haus, FlorianÃ³polis - SC (Brazil)",
        "address": "Av. dos Merlins, 156 - JurerÃª Internacional, FlorianÃ³polis - SC, 88053-370, Brazil",
        "city": "FlorianÃ³polis",
        "country": "Brazil",
        "region": "Central & South America",
        "continent": "Central & South America",
        "lat": "-27.5969",
        "lng": "-48.5468",
        "readyToShow": "TRUE",
        "countryFlag": "ðŸ‡§ðŸ‡·"
      }
    ]
  },
  "europe": {
    "label": "Europe",
    "events": [
      {
        "host": "ETHTurin",
        "eventLink": "https://platform.serotonin.co/events/decentralized-by-nature-ethereums-10th-at-stone-oven-house-ror-italy-isrcoe",
        "pingedForURL": "TRUE",
        "eventLocation": "stoneovenhouse.com",
        "address": "Via Maestra, 4 - 10060 RorÃ  TO",
        "city": "RorÃ ",
        "country": "Italy",
        "region": "Europe",
        "continent": "Europe",
        "lat": "44.7923",
        "lng": "7.1966",
        "readyToShow": "TRUE",
        "countryFlag": "ðŸ‡®ðŸ‡¹"
      },
      {
        "host": "Imperial College London",
        "eventLink": "https://lu.ma/8ejysqky",
        "pingedForURL": "TRUE",
        "eventLocation": "Imperial College London, South Kensington Campus, London SW7 2AZ, United Kingdom",
        "address": "TBD",
        "city": "London",
        "country": "United Kingdom",
        "region": "Europe",
        "continent": "Europe",
        "lat": "51.5072",
        "lng": "-0.1276",
        "readyToShow": "TRUE",
        "countryFlag": "ðŸ‡¬ðŸ‡§"
      },
      {
        "host": "Brighton Blockchain",
        "eventLink": "https://www.meetup.com/brighton-blockchain/events/307527140/",
        "pingedForURL": "FALSE",
        "eventLocation": "Freedom Works, Black Lion Street, Brighton and Hove, BN1 1JE",
        "address": "Freedom Works, Black Lion Street, Brighton and Hove, BN1 1JE",
        "city": "Brighton",
        "country": "United Kingdom",
        "region": "Europe",
        "continent": "Europe",
        "lat": "50.8229",
        "lng": "-0.1363",
        "readyToShow": "TRUE",
        "countryFlag": "ðŸ‡¬ðŸ‡§"
      },
      {
        "host": "ETHBratislava",
        "eventLink": "https://lu.ma/t41op9nb",
        "pingedForURL": "FALSE",
        "eventLocation": "The Spot",
        "address": "Bottova 2/A, 811 09 Bratislava, Slovakia",
        "city": "Bratislava",
        "country": "Slovakia",
        "region": "Europe",
        "continent": "Europe",
        "lat": "48.1486",
        "lng": "17.1077",
        "readyToShow": "TRUE",
        "countryFlag": "ðŸ‡¸ðŸ‡°"
      },
      {
        "host": "Klapf  ",
        "eventLink": "https://lu.ma/0wh4fh5d",
        "pingedForURL": "TRUE",
        "eventLocation": "Butchers Bar & Grill",
        "address": "Marktpl. 10, 85229 Markt Indersdorf, Germany",
        "city": "Markt Indersdorf",
        "country": "Germany",
        "region": "Europe",
        "continent": "Europe",
        "lat": "48.3622",
        "lng": "11.3743",
        "readyToShow": "TRUE",
        "countryFlag": "ðŸ‡©ðŸ‡ª"
      },
      {
        "host": "PWN DAO Foundation",
        "eventLink": "https://lu.ma/xdjlepmh",
        "pingedForURL": "FALSE",
        "eventLocation": "PÅ™Ã­stav 18600",
        "address": "RohanskÃ½ ostrov 8, 186 00 Praha 8-",
        "city": "Prague",
        "country": "Czech Republic",
        "region": "Europe",
        "continent": "Europe",
        "lat": "50.0755",
        "lng": "14.4378",
        "readyToShow": "TRUE",
        "countryFlag": "ðŸ‡¨ðŸ‡¿"
      }
    ]
  },
  "north america": {
    "label": "North America",
    "events": [
      {
        "host": "Ethereum Austin",
        "eventLink": "https://www.meetup.com/ethereum-austin/events/307661745",
        "pingedForURL": "FALSE",
        "eventLocation": "2410 San Antonio Ave, Austin TX",
        "address": "2410 San Antonio Ave, Austin TX",
        "city": "Austin",
        "country": "United States",
        "region": "North America",
        "continent": "North America",
        "lat": "30.2672",
        "lng": "-97.7431",
        "readyToShow": "TRUE",
        "countryFlag": "ðŸ‡ºðŸ‡¸"
      }
    ]
  },
  "oceania": {
    "label": "Oceania",
    "events": [
      {
        "host": "ETHSydney",
        "eventLink": "https://lu.ma/qx0g2942",
        "pingedForURL": "FALSE",
        "eventLocation": "Helix Collective Sydney Office",
        "address": "level 1/2/14 Vine St, Redfern NSW 2016, Australia",
        "city": "Sydney",
        "country": "Australia",
        "region": "Oceania",
        "continent": "Oceania",
        "lat": "-33.8688",
        "lng": "151.2093",
        "readyToShow": "TRUE",
        "countryFlag": "ðŸ‡¦ðŸ‡º"
      }
    ]
  }
}
